id,name,code,region,latitude,longitude
1,DC Central Colombo,DC-CLB,Western,6.9271,79.8612
2,DC Kandy,DC-KDY,Central,7.2906,80.6337
3,DC Galle,DC-GLE,Southern,6.0535,80.2210
4,DC Jaffna,DC-JFN,Northern,9.6615,80.0255
5,DC Kurunegala,DC-KUR,North Western,7.4863,80.3623
